name,long,lat,category
Budalang'i,34.057,0.1028,Flood
Garissa,39.654,-0.456,Flood
Ahero,35.1975,-0.1687,Flood
Tana Delta,40.28,-2.532,Flood
Lodwar,35.597,3.119,NonFlood
Isiolo,37.5833,0.35,NonFlood
Nakuru,36.0667,-0.2833,NonFlood
Nyeri,36.95,-0.4167,NonFlood
Wajir,40.065,1.75,NonFlood
